{"class":"VERSION","release":"3.6","rev":"3.6","proto_major":3,"proto_minor":7}
{"class":"DEVICES","devices":[{"class":"DEVICE","path":"/dev/ttyUSB0","activated":"2014-12-26T20:32:23.510Z","flags":1,"driver":"SiRF binary","native":1,"bps":4800,"parity":"N","stopbits":1,"cycle":1.00}]}
{"class":"WATCH","enable":true,"json":false,"nmea":true,"raw":0,"scaled":false,"timing":false}
$GPZDA,203234.00,26,12,2014,00,00*62
$GPGGA,203234,4524.9424,N,08348.7428,W,1,08,1.00,186.26,M,-35.933,M,,*76
$GPRMC,203234,A,4524.9424,N,08348.7428,W,0.1740,8.655,261214,,*37
$GPGSA,A,3,21,24,14,19,27,22,18,15,,,,,1.6,1.0,1.1*34
$GPGSV,3,1,12,24,50,070,49,04,12,319,35,22,67,301,44,11,03,325,21*7C
$GPGSV,3,2,12,19,13,286,42,27,06,259,22,12,08,109,25,14,47,252,44*71
$GPGSV,3,3,12,15,19,066,33,18,70,108,45,21,27,180,35,135,19,237,42*46
$GPZDA,203235.00,26,12,2014,00,00*63
$GPGGA,203235,4524.9424,N,08348.7428,W,1,07,1.00,186.26,M,-35.933,M,,*78
$GPRMC,203235,A,4524.9424,N,08348.7428,W,0.1740,8.655,261214,,*36
$GPGSA,A,3,21,24,14,19,22,18,15,,,,,,1.6,1.0,1.1*31
$GPGSV,3,1,11,24,50,070,48,04,12,319,34,22,67,301,44,11,03,325,20*7E
$GPGSV,3,2,11,19,13,286,42,12,08,109,25,14,47,252,43,15,19,066,26*70
$GPGSV,3,3,11,18,70,108,45,21,27,180,34,135,19,237,41*7B
$GPZDA,203236.00,26,12,2014,00,00*60
$GPGGA,203236,4524.9424,N,08348.7428,W,1,06,1.40,186.26,M,-35.933,M,,*7E
$GPRMC,203236,A,4524.9424,N,08348.7428,W,0.1740,8.655,261214,,*35
$GPGSA,A,3,21,24,14,19,22,18,,,,,,,1.8,1.4,1.2*3C
$GPGSV,3,1,10,24,50,070,48,04,12,319,34,22,67,301,43,11,03,325,20*78
$GPGSV,3,2,10,19,13,286,42,12,08,109,25,14,47,252,43,18,70,108,45*7F
$GPGSV,3,3,10,21,27,180,34,135,19,237,41*4C
$GPZDA,203237.00,26,12,2014,00,00*61
$GPGGA,203237,4524.9424,N,08348.7428,W,1,06,1.40,186.26,M,-35.933,M,,*7F
$GPRMC,203237,A,4524.9424,N,08348.7428,W,0.1740,8.655,261214,,*34
$GPGSA,A,3,21,24,14,19,22,18,,,,,,,2.2,1.4,1.3*34
$GPGSV,3,1,11,24,50,070,49,04,12,319,34,22,67,301,43,11,03,325,20*78
$GPGSV,3,2,11,19,13,286,42,12,08,109,25,14,47,252,43,15,19,066,26*70
$GPGSV,3,3,11,18,70,108,46,21,27,180,34,135,19,237,42*7B
$GPZDA,203238.00,26,12,2014,00,00*6E
$GPGGA,203238,4524.9424,N,08348.7428,W,1,06,1.40,186.26,M,-35.933,M,,*70
$GPRMC,203238,A,4524.9424,N,08348.7428,W,0.1740,8.655,261214,,*3B
$GPGSA,A,3,21,24,14,19,22,18,,,,,,,2.2,1.4,1.3*34
$GPGSV,3,1,10,24,50,070,49,04,12,319,34,22,67,301,43,11,03,325,20*79
$GPGSV,3,2,10,19,13,286,42,12,08,109,25,14,47,252,43,18,70,108,46*7C
$GPGSV,3,3,10,21,27,180,35,135,19,237,42*4E
$GPZDA,203239.00,26,12,2014,00,00*6F
$GPGGA,203239,4524.9424,N,08348.7428,W,1,06,1.40,186.26,M,-35.933,M,,*71
$GPRMC,203239,A,4524.9424,N,08348.7428,W,0.1740,8.655,261214,,*3A
$GPGSA,A,3,21,24,14,19,22,18,,,,,,,2.2,1.4,1.3*34
$GPGSV,3,1,10,24,50,070,49,04,12,319,35,22,67,301,43,11,03,325,20*78
$GPGSV,3,2,10,19,13,286,42,12,08,109,25,14,47,252,42,18,70,108,46*7D
$GPGSV,3,3,10,21,27,180,34,135,19,237,42*4F
$GPZDA,203240.00,26,12,2014,00,00*61
$GPGGA,203240,4524.9424,N,08348.7428,W,1,06,1.40,186.26,M,-35.933,M,,*7F
$GPRMC,203240,A,4524.9424,N,08348.7428,W,0.1740,8.655,261214,,*34
$GPGSA,A,3,21,24,14,19,22,18,,,,,,,2.2,1.4,1.3*34
$GPGSV,3,1,10,24,50,070,49,04,12,319,35,22,67,301,43,11,03,325,20*78
$GPGSV,3,2,10,19,13,286,42,12,08,109,25,14,47,252,42,18,70,108,46*7D
$GPGSV,3,3,10,21,27,180,34,135,19,237,41*4C
$GPZDA,203241.00,26,12,2014,00,00*60
$GPGGA,203241,4524.9428,N,08348.7427,W,1,06,1.40,185.56,M,-35.933,M,,*79
$GPRMC,203241,A,4524.9428,N,08348.7427,W,0.1740,8.655,261214,,*36
$GPGSA,A,3,21,24,14,19,22,18,,,,,,,2.2,1.4,1.3*34
$GPGSV,3,1,10,24,50,070,48,04,12,319,34,22,67,301,43,11,03,325,20*78
$GPGSV,3,2,10,19,13,286,42,12,08,109,20,14,47,252,42,18,70,108,46*78
$GPGSV,3,3,10,21,27,180,34,135,19,237,40*4D
$GPZDA,203242.00,26,12,2014,00,00*63
$GPGGA,203242,4524.9428,N,08348.7427,W,1,06,1.40,185.56,M,-35.933,M,,*7A
$GPRMC,203242,A,4524.9428,N,08348.7427,W,0.1740,8.655,261214,,*35
$GPGSA,A,3,21,24,14,19,22,18,,,,,,,2.2,1.4,1.3*34
$GPGSV,3,1,12,24,50,070,48,04,12,319,34,22,67,301,43,11,03,325,20*7A
$GPGSV,3,2,12,19,13,286,42,27,06,259,24,12,08,109,24,14,47,252,42*70
$GPGSV,3,3,12,15,19,066,29,18,70,108,46,21,27,180,31,135,19,237,29*47
$GPZDA,203243.00,26,12,2014,00,00*62
$GPGGA,203243,4524.9424,N,08348.7428,W,1,08,1.00,186.26,M,-35.933,M,,*76
$GPRMC,203243,A,4524.9424,N,08348.7428,W,2.4309,139.269,261214,,*31
$GPGSA,A,3,21,24,14,19,15,22,18,27,,,,,2.6,1.0,1.9*3F
$GPGSV,3,1,12,24,50,070,48,04,12,319,34,22,67,301,43,11,03,325,20*7A
$GPGSV,3,2,12,19,13,286,41,27,06,259,25,12,08,109,24,14,47,252,43*73
$GPGSV,3,3,12,15,19,066,31,18,70,108,45,21,27,180,33,135,19,237,28*4E
$GPZDA,203244.00,26,12,2014,00,00*65
$GPGGA,203244,4524.9420,N,08348.7420,W,1,08,1.00,185.62,M,-35.933,M,,*7E
$GPRMC,203244,A,4524.9420,N,08348.7420,W,4.8460,139.515,261214,,*34
$GPGSA,A,3,21,24,14,19,15,22,18,27,,,,,1.6,1.0,1.1*34
$GPGSV,3,1,12,24,50,069,45,04,12,319,33,22,68,303,40,11,03,325,21*77
$GPGSV,3,2,12,19,13,286,27,27,06,259,24,12,08,109,24,14,48,252,42*7C
$GPGSV,3,3,12,15,19,066,31,18,70,108,45,21,27,180,35,135,19,237,30*41
$GPZDA,203245.00,26,12,2014,00,00*64
$GPGGA,203245,4524.9404,N,08348.7407,W,1,08,1.00,185.74,M,-35.933,M,,*7B
$GPRMC,203245,A,4524.9404,N,08348.7407,W,6.1476,138.667,261214,,*3D
$GPGSA,A,3,21,24,14,19,15,22,18,27,,,,,1.6,1.0,1.1*34
$GPGSV,3,1,12,24,50,069,42,04,12,319,33,22,68,303,41,11,03,325,21*71
$GPGSV,3,2,12,19,13,286,28,27,06,259,24,12,08,109,24,14,48,252,43*72
$GPGSV,3,3,12,15,19,066,32,18,70,108,45,21,27,180,36,135,19,237,41*47
$GPZDA,203246.00,26,12,2014,00,00*67
$GPGGA,203246,4524.9392,N,08348.7385,W,1,08,1.00,185.25,M,-35.933,M,,*79
$GPRMC,203246,A,4524.9392,N,08348.7385,W,6.8087,141.384,261214,,*3E
$GPGSA,A,3,21,24,14,19,15,22,18,27,,,,,1.6,1.0,1.1*34
$GPGSV,3,1,12,24,50,069,41,04,12,319,32,22,68,303,41,11,03,325,20*72
$GPGSV,3,2,12,19,13,286,28,27,06,259,24,12,08,109,24,14,48,252,43*72
$GPGSV,3,3,12,15,19,066,32,18,70,108,45,21,27,180,36,135,19,237,41*47
$GPZDA,203247.00,26,12,2014,00,00*66
$GPGGA,203247,4524.9375,N,08348.7371,W,1,08,1.00,185.37,M,-35.933,M,,*79
$GPRMC,203247,A,4524.9375,N,08348.7371,W,7.1482,138.544,261214,,*30
$GPGSA,A,3,21,24,14,19,15,22,18,27,,,,,1.6,1.0,1.1*34
$GPGSV,3,1,12,24,50,069,35,04,12,319,32,22,68,303,41,11,03,325,20*71
$GPGSV,3,2,12,19,13,286,29,27,06,259,24,12,08,109,24,14,48,252,43*73
$GPGSV,3,3,12,15,19,066,31,18,70,108,45,21,27,180,36,135,19,237,37*45
$GPZDA,203248.00,26,12,2014,00,00*69
$GPGGA,203248,4524.9359,N,08348.7350,W,1,08,1.00,185.57,M,-35.933,M,,*7D
$GPRMC,203248,A,4524.9359,N,08348.7350,W,7.6760,140.121,261214,,*32
$GPGSA,A,3,21,24,14,19,15,22,18,27,,,,,1.6,1.0,1.1*34
$GPGSV,3,1,12,24,50,069,38,04,12,319,32,22,68,303,41,11,03,325,20*7C
$GPGSV,3,2,12,19,13,286,39,27,06,259,23,12,08,109,24,14,48,252,43*75
$GPGSV,3,3,12,15,19,066,29,18,70,108,45,21,27,180,36,135,19,237,38*43
$GPZDA,203249.00,26,12,2014,00,00*68
$GPGGA,203249,4524.9343,N,08348.7329,W,1,08,1.00,185.76,M,-35.933,M,,*7A
$GPRMC,203249,A,4524.9343,N,08348.7329,W,7.4338,138.273,261214,,*36
$GPGSA,A,3,21,24,14,19,15,22,18,27,,,,,1.6,1.0,1.1*34
$GPGSV,3,1,12,24,50,069,37,04,12,319,32,22,68,303,41,11,03,325,19*79
$GPGSV,3,2,12,19,13,286,39,27,06,259,25,12,08,109,24,14,48,252,43*73
$GPGSV,3,3,12,15,19,066,29,18,70,108,45,21,27,180,36,135,19,237,39*42
$GPZDA,203250.00,26,12,2014,00,00*60
$GPGGA,203250,4524.9330,N,08348.7314,W,1,08,1.00,185.19,M,-35.933,M,,*71
$GPRMC,203250,A,4524.9330,N,08348.7314,W,6.9280,142.442,261214,,*33
$GPGSA,A,3,21,24,14,19,15,22,18,27,,,,,1.6,1.0,1.1*34
$GPGSV,3,1,12,24,50,069,37,04,12,319,32,22,68,303,41,11,03,325,19*79
$GPGSV,3,2,12,19,13,286,39,27,06,259,26,12,08,109,36,14,48,252,43*73
$GPGSV,3,3,12,15,19,066,30,18,70,108,44,21,27,180,37,135,19,237,40*44
$GPZDA,203251.00,26,12,2014,00,00*61
$GPGGA,203251,4524.9314,N,08348.7301,W,1,08,1.00,185.31,M,-35.933,M,,*78
$GPRMC,203251,A,4524.9314,N,08348.7301,W,5.3782,141.672,261214,,*3C
$GPGSA,A,3,21,24,14,19,15,22,18,27,,,,,1.6,1.0,1.1*34
$GPGSV,3,1,12,24,50,069,38,04,12,319,31,22,68,303,41,11,03,325,19*75
$GPGSV,3,2,12,19,13,286,39,27,06,259,26,12,08,109,38,14,48,252,43*7D
$GPGSV,3,3,12,15,19,066,38,18,70,108,44,21,27,180,37,135,19,237,40*4C
$GPZDA,203252.00,26,12,2014,00,00*62
$GPGGA,203252,4524.9302,N,08348.7287,W,1,08,1.00,186.15,M,-35.933,M,,*76
$GPRMC,203252,A,4524.9302,N,08348.7287,W,4.5456,140.283,261214,,*31
$GPGSA,A,3,21,24,14,19,15,22,18,27,,,,,1.6,1.0,1.1*34
$GPGSV,3,1,12,24,50,069,45,04,12,319,25,22,68,303,41,11,03,325,19*7A
$GPGSV,3,2,12,19,13,286,39,27,06,259,26,12,08,109,39,14,48,252,43*7C
$GPGSV,3,3,12,15,19,066,38,18,70,108,44,21,27,180,37,135,19,237,40*4C
$GPZDA,203253.00,26,12,2014,00,00*63
$GPGGA,203253,4524.9294,N,08348.7280,W,1,08,1.00,186.21,M,-35.933,M,,*79
$GPRMC,203253,A,4524.9294,N,08348.7280,W,4.0984,143.328,261214,,*3D
$GPGSA,A,3,21,24,14,19,15,22,18,27,,,,,1.6,1.0,1.1*34
$GPGSV,3,1,12,24,50,069,46,04,12,319,27,22,68,303,41,11,03,325,19*7B
$GPGSV,3,2,12,19,13,286,38,27,06,259,25,12,08,109,38,14,48,252,43*7F
$GPGSV,3,3,12,15,19,066,34,18,70,108,44,21,27,180,37,135,19,237,36*41
$GPZDA,203254.00,26,12,2014,00,00*64
$GPGGA,203254,4524.9282,N,08348.7273,W,1,08,1.00,185.56,M,-35.933,M,,*76
$GPRMC,203254,A,4524.9282,N,08348.7273,W,4.1015,155.964,261214,,*34
$GPGSA,A,3,21,24,14,19,15,22,18,27,,,,,1.6,1.0,1.1*34
$GPGSV,3,1,12,24,50,069,45,04,12,319,28,22,68,303,41,11,03,325,20*7D
$GPGSV,3,2,12,19,13,286,29,27,06,259,25,12,08,109,38,14,48,252,43*7F
$GPGSV,3,3,12,15,19,066,35,18,70,108,39,21,27,180,37,135,19,237,36*4A
$GPZDA,203255.00,26,12,2014,00,00*65
$GPGGA,203255,4524.9270,N,08348.7267,W,1,08,1.00,186.32,M,-35.933,M,,*7E
$GPRMC,203255,A,4524.9270,N,08348.7267,W,4.9079,172.983,261214,,*33
$GPGSA,A,3,21,24,14,19,15,22,18,27,,,,,1.6,1.0,1.1*34
$GPGSV,3,1,12,24,50,069,42,04,12,319,37,22,68,303,42,11,03,325,29*7E
$GPGSV,3,2,12,19,13,286,30,27,06,259,20,12,08,109,29,14,48,252,43*72
$GPGSV,3,3,12,15,19,066,37,18,70,108,36,21,27,180,38,135,19,237,30*4E
$GPZDA,203256.00,26,12,2014,00,00*66
$GPGGA,203256,4524.9255,N,08348.7269,W,1,08,1.00,186.29,M,-35.933,M,,*7E
$GPRMC,203256,A,4524.9255,N,08348.7269,W,5.5450,191.904,261214,,*39
$GPGSA,A,3,21,24,14,19,15,22,18,27,,,,,1.6,1.0,1.1*34
$GPGSV,3,1,12,24,50,069,41,04,12,319,36,22,68,303,42,11,03,325,25*70
$GPGSV,3,2,12,19,13,286,30,27,06,259,21,12,08,109,30,14,48,252,43*7B
$GPGSV,3,3,12,15,19,066,36,18,70,108,37,21,27,180,45,135,19,237,41*42
$GPZDA,203257.00,26,12,2014,00,00*67
$GPGGA,203257,4524.9240,N,08348.7278,W,1,08,1.00,186.18,M,-35.933,M,,*79
$GPRMC,203257,A,4524.9240,N,08348.7278,W,6.1223,210.447,261214,,*39
$GPGSA,A,3,21,24,14,19,15,22,18,27,,,,,1.6,1.0,1.1*34
$GPGSV,3,1,12,24,50,069,42,04,12,319,36,22,68,303,42,11,03,325,25*73
$GPGSV,3,2,12,19,13,286,38,27,06,259,31,12,08,109,29,14,48,252,44*7D
$GPGSV,3,3,12,15,19,066,31,18,70,108,38,21,27,180,43,135,19,237,43*4E
$GPZDA,203258.00,26,12,2014,00,00*68
$GPGGA,203258,4524.9226,N,08348.7295,W,1,08,1.00,186.00,M,-35.933,M,,*7C
$GPRMC,203258,A,4524.9226,N,08348.7295,W,7.0919,227.759,261214,,*3F
$GPGSA,A,3,21,24,14,19,15,22,18,27,,,,,1.6,1.0,1.1*34
$GPGSV,3,1,12,24,50,069,43,04,12,319,36,22,68,303,47,11,03,325,25*77
$GPGSV,3,2,12,19,13,286,37,27,06,259,33,12,08,109,28,14,48,252,46*73
$GPGSV,3,3,12,15,19,066,30,18,70,108,44,21,27,180,43,135,19,237,44*43
$GPZDA,203259.00,26,12,2014,00,00*69
$GPGGA,203259,4524.9212,N,08348.7327,W,1,08,1.00,185.67,M,-35.933,M,,*70
$GPRMC,203259,A,4524.9212,N,08348.7327,W,11.8088,232.361,261214,,*04
$GPGSA,A,3,21,24,14,19,15,22,18,27,,,,,1.6,1.0,1.1*34
$GPGSV,3,1,12,24,50,069,44,04,12,319,36,22,68,303,47,11,03,325,24*71
$GPGSV,3,2,12,19,13,286,30,27,06,259,34,12,08,109,28,14,48,252,46*73
$GPGSV,3,3,12,15,19,066,31,18,70,108,44,21,27,180,43,135,19,237,43*45
$GPZDA,203300.00,26,12,2014,00,00*64
$GPGGA,203300,4524.9188,N,08348.7369,W,1,08,1.00,185.95,M,-35.933,M,,*7A
$GPRMC,203300,A,4524.9188,N,08348.7369,W,14.8851,233.231,261214,,*0F
$GPGSA,A,3,21,24,14,19,15,22,18,27,,,,,1.6,1.0,1.1*34
$GPGSV,3,1,11,24,50,069,44,04,12,319,27,22,68,303,47,11,03,325,24*72
$GPGSV,3,2,11,19,13,286,34,27,06,259,23,14,48,252,46,15,19,066,31*75
$GPGSV,3,3,11,18,70,108,44,21,27,180,43,135,19,237,39*75
$GPZDA,203301.00,26,12,2014,00,00*65
$GPGGA,203301,4524.9163,N,08348.7410,W,1,08,1.00,186.22,M,-35.933,M,,*78
$GPRMC,203301,A,4524.9163,N,08348.7410,W,14.4771,233.624,261214,,*03
$GPGSA,A,3,21,24,14,19,15,22,18,27,,,,,1.9,1.0,1.4*3E
$GPGSV,3,1,11,24,50,069,44,04,12,319,28,22,68,303,47,11,03,325,00*7B
$GPGSV,3,2,11,19,13,286,35,27,06,259,24,14,48,252,46,15,19,066,31*73
$GPGSV,3,3,11,18,70,108,44,21,27,180,42,135,19,237,39*74
$GPZDA,203302.00,26,12,2014,00,00*66
$GPGGA,203302,4524.9143,N,08348.7458,W,1,08,1.00,185.73,M,-35.933,M,,*72
$GPRMC,203302,A,4524.9143,N,08348.7458,W,13.0713,234.272,261214,,*09
$GPGSA,A,3,21,24,14,19,15,22,18,27,,,,,1.9,1.0,1.4*3E
$GPGSV,3,1,11,24,50,069,43,04,13,319,30,22,68,303,47,11,03,325,18*7D
$GPGSV,3,2,11,19,13,286,34,27,06,259,23,14,48,252,45,15,19,066,32*75
$GPGSV,3,3,11,18,70,108,43,21,27,180,36,135,19,237,34*7D
$GPZDA,203303.00,26,12,2014,00,00*67
$GPGGA,203303,4524.9122,N,08348.7499,W,1,08,1.00,185.31,M,-35.933,M,,*7F
$GPRMC,203303,A,4524.9122,N,08348.7499,W,10.3630,235.316,261214,,*00
$GPGSA,A,3,21,24,14,19,15,22,18,27,,,,,1.9,1.0,1.4*3E
$GPGSV,3,1,12,24,50,069,39,04,13,319,31,22,68,303,47,11,03,325,34*7C
$GPGSV,3,2,12,19,13,286,30,27,06,259,22,12,08,109,32,14,48,252,44*7D
$GPGSV,3,3,12,15,19,066,32,18,70,108,40,21,27,180,39,135,19,237,35*4E
$GPZDA,203304.00,26,12,2014,00,00*60
$GPGGA,203304,4524.9112,N,08348.7523,W,1,08,1.00,185.76,M,-35.933,M,,*78
$GPRMC,203304,A,4524.9112,N,08348.7523,W,6.6672,238.012,261214,,*3A
$GPGSA,A,3,21,24,14,19,15,22,18,27,,,,,1.6,1.0,1.1*34
$GPGSV,3,1,12,24,50,069,38,04,13,319,31,22,68,303,46,11,03,325,33*7B
$GPGSV,3,2,12,19,13,286,30,27,06,259,22,12,08,109,30,14,48,252,44*7F
$GPGSV,3,3,12,15,19,066,33,18,70,108,40,21,27,180,40,135,19,237,36*42
$GPZDA,203305.00,26,12,2014,00,00*61
$GPGGA,203305,4524.9102,N,08348.7548,W,1,08,1.00,186.22,M,-35.933,M,,*77
$GPRMC,203305,A,4524.9102,N,08348.7548,W,5.0033,245.636,261214,,*3B
$GPGSA,A,3,21,24,14,19,15,22,18,27,,,,,1.6,1.0,1.1*34
$GPGSV,3,1,11,24,50,069,38,04,13,319,32,22,68,303,43,11,03,325,25*79
$GPGSV,3,2,11,27,06,259,22,12,08,109,21,14,48,252,44,15,19,066,33*75
$GPGSV,3,3,11,18,70,108,41,21,27,180,40,135,19,237,17*7F
$GPZDA,203306.00,26,12,2014,00,00*62
$GPGGA,203306,4524.9099,N,08348.7563,W,1,07,1.20,185.36,M,-35.933,M,,*75
$GPRMC,203306,A,4524.9099,N,08348.7563,W,5.5025,261.735,261214,,*34
$GPGSA,A,3,21,24,14,15,22,18,27,,,,,,1.5,1.2,1.1*3D
$GPGSV,3,1,12,24,50,069,38,04,13,319,42,22,68,303,43,11,03,325,23*7B
$GPGSV,3,2,12,19,13,286,27,27,06,259,22,12,08,109,21,14,48,252,44*79
$GPGSV,3,3,12,15,19,066,33,18,70,108,41,21,27,180,35,135,19,237,35*42
$GPZDA,203307.00,26,12,2014,00,00*63
$GPGGA,203307,4524.9100,N,08348.7594,W,1,08,1.00,186.46,M,-35.933,M,,*74
$GPRMC,203307,A,4524.9100,N,08348.7594,W,7.1114,279.904,261214,,*3C
$GPGSA,A,3,21,24,14,19,15,22,18,27,,,,,1.7,1.0,1.2*36
$GPGSV,3,1,11,24,50,069,39,04,13,319,37,22,68,303,43,11,03,325,23*7B
$GPGSV,3,2,11,27,06,259,22,12,08,109,22,14,48,252,44,15,19,066,42*70
$GPGSV,3,3,11,18,70,108,41,21,27,180,39,135,19,237,35*71
$GPZDA,203308.00,26,12,2014,00,00*6C
$GPGGA,203308,4524.9109,N,08348.7617,W,1,07,1.20,186.25,M,-35.933,M,,*72
$GPRMC,203308,A,4524.9109,N,08348.7617,W,7.2820,299.484,261214,,*34
$GPGSA,A,3,21,24,14,15,22,18,27,,,,,,1.5,1.2,1.1*3D
$GPGSV,3,1,12,24,50,069,44,04,13,319,39,22,68,303,42,11,03,325,22*7C
$GPGSV,3,2,12,19,13,286,27,27,06,259,22,12,08,109,23,14,48,252,44*7B
$GPGSV,3,3,12,15,19,066,40,18,70,108,42,21,27,180,39,135,19,237,30*4C
$GPZDA,203309.00,26,12,2014,00,00*6D
$GPGGA,203309,4524.9118,N,08348.7639,W,1,08,1.00,186.04,M,-35.933,M,,*71
$GPRMC,203309,A,4524.9118,N,08348.7639,W,8.1325,318.596,261214,,*31
$GPGSA,A,3,21,24,14,19,15,22,18,27,,,,,1.7,1.0,1.2*36
$GPGSV,3,1,12,24,50,069,45,04,13,319,43,22,68,303,45,11,03,325,23*76
$GPGSV,3,2,12,19,13,286,36,27,06,259,38,12,08,109,30,14,48,252,50*77
$GPGSV,3,3,12,15,19,066,36,18,70,108,46,21,27,180,39,135,19,237,31*48
$GPZDA,203310.00,26,12,2014,00,00*65
$GPGGA,203310,4524.9143,N,08348.7667,W,1,08,1.00,185.78,M,-35.933,M,,*74
$GPRMC,203310,A,4524.9143,N,08348.7667,W,11.9218,320.491,261214,,*0E
$GPGSA,A,3,21,24,14,19,15,22,18,27,,,,,1.6,1.0,1.1*34
$GPGSV,3,1,12,24,50,069,46,04,13,319,42,22,68,303,45,11,03,325,23*74
$GPGSV,3,2,12,19,13,286,39,27,06,259,28,12,08,109,33,14,48,252,49*72
$GPGSV,3,3,12,15,19,066,36,18,70,108,46,21,27,180,38,135,19,237,30*48
$GPZDA,203311.00,26,12,2014,00,00*64
$GPGGA,203311,4524.9175,N,08348.7701,W,1,08,1.00,185.46,M,-35.933,M,,*7C
$GPRMC,203311,A,4524.9175,N,08348.7701,W,15.1685,320.856,261214,,*00
$GPGSA,A,3,21,24,14,19,15,22,18,27,,,,,1.6,1.0,1.1*34
$GPGSV,3,1,12,24,50,069,45,04,13,319,42,22,68,303,46,11,03,325,26*71
$GPGSV,3,2,12,19,13,286,41,27,06,259,26,12,08,109,34,14,48,252,37*7D
$GPGSV,3,3,12,15,19,066,35,18,70,108,45,21,27,180,38,135,19,237,29*40
$GPZDA,203312.00,26,12,2014,00,00*67
$GPGGA,203312,4524.9212,N,08348.7744,W,1,08,1.00,185.77,M,-35.933,M,,*7E
$GPRMC,203312,A,4524.9212,N,08348.7744,W,16.8348,321.686,261214,,*0C
$GPGSA,A,3,21,24,14,19,15,22,18,27,,,,,1.6,1.0,1.1*34
$GPGSV,3,1,12,24,50,069,45,04,13,319,42,22,68,303,46,11,03,325,26*71
$GPGSV,3,2,12,19,13,286,40,27,06,259,26,12,08,109,33,14,48,252,48*73
$GPGSV,3,3,12,15,19,066,30,18,70,108,45,21,27,180,38,135,19,237,29*45
$GPZDA,203313.00,26,12,2014,00,00*66
$GPGGA,203313,4524.9252,N,08348.7785,W,1,08,1.00,185.39,M,-35.933,M,,*7C
$GPRMC,203313,A,4524.9252,N,08348.7785,W,18.2672,326.567,261214,,*07
$GPGSA,A,3,21,24,14,19,15,22,18,27,,,,,1.6,1.0,1.1*34
$GPGSV,3,1,12,24,50,069,45,04,13,319,40,22,68,303,45,11,03,325,27*71
$GPGSV,3,2,12,19,13,286,39,27,06,259,21,12,08,109,27,14,48,252,47*70
$GPGSV,3,3,12,15,19,066,31,18,70,108,45,21,27,180,36,135,19,237,27*44
$GPZDA,203314.00,26,12,2014,00,00*61
$GPGGA,203314,4524.9297,N,08348.7827,W,1,08,1.00,185.72,M,-35.933,M,,*7A
$GPRMC,203314,A,4524.9297,N,08348.7827,W,19.9340,322.219,261214,,*0A
$GPGSA,A,3,21,24,14,19,15,22,18,27,,,,,1.6,1.0,1.1*34
$GPGSV,3,1,12,24,50,069,45,04,13,319,40,22,68,303,45,11,03,325,28*7E
$GPGSV,3,2,12,19,12,286,41,27,06,259,23,12,08,109,34,14,48,252,48*71
$GPGSV,3,3,12,15,19,066,32,18,70,109,45,21,27,180,36,135,19,237,29*48
$GPZDA,203315.00,26,12,2014,00,00*60
$GPGGA,203315,4524.9342,N,08348.7883,W,1,08,1.00,184.49,M,-35.933,M,,*75
$GPRMC,203315,A,4524.9342,N,08348.7883,W,22.3471,321.954,261214,,*0A
$GPGSA,A,3,21,24,14,19,15,22,18,27,,,,,1.6,1.0,1.1*34
$GPGSV,3,1,12,24,50,069,45,04,13,319,40,22,68,303,45,11,03,325,34*73
$GPGSV,3,2,12,19,12,286,41,27,06,259,23,12,08,109,22,14,48,252,48*76
$GPGSV,3,3,12,15,19,066,32,18,70,109,45,21,27,180,36,135,19,237,28*49
$GPZDA,203316.00,26,12,2014,00,00*63
$GPGGA,203316,4524.9395,N,08348.7939,W,1,08,1.00,184.68,M,-35.933,M,,*7F
$GPRMC,203316,A,4524.9395,N,08348.7939,W,23.4377,322.779,261214,,*06
$GPGSA,A,3,21,24,14,19,15,22,18,27,,,,,1.6,1.0,1.1*34
$GPGSV,3,1,11,24,50,069,43,04,13,319,40,22,68,303,45,11,03,325,33*71
$GPGSV,3,2,11,19,12,286,41,27,06,259,24,12,08,109,24,14,48,252,48*74
$GPGSV,3,3,11,15,19,066,32,18,70,109,44,21,27,180,36*48
$GPZDA,203317.00,26,12,2014,00,00*62
$GPGGA,203317,4524.9447,N,08348.7995,W,1,08,1.00,184.88,M,-35.933,M,,*7E
$GPRMC,203317,A,4524.9447,N,08348.7995,W,23.5993,322.340,261214,,*06
$GPGSA,A,3,21,24,14,19,15,22,18,27,,,,,1.6,1.0,1.1*34
$GPGSV,3,1,11,24,50,069,43,04,13,319,40,22,68,303,45,11,03,325,34*76
$GPGSV,3,2,11,19,12,286,41,27,06,259,29,12,08,109,34,14,48,252,48*78
$GPGSV,3,3,11,15,19,066,32,18,70,109,44,21,27,180,39*47
$GPZDA,203318.00,26,12,2014,00,00*6D
$GPGGA,203318,4524.9496,N,08348.8051,W,1,08,1.00,184.36,M,-35.933,M,,*76
$GPRMC,203318,A,4524.9496,N,08348.8051,W,24.0170,322.459,261214,,*03
$GPGSA,A,3,21,24,14,19,15,22,18,27,,,,,1.6,1.0,1.1*34
$GPGSV,3,1,11,24,50,069,44,04,13,319,40,22,68,303,45,11,03,325,35*70
$GPGSV,3,2,11,19,12,286,41,27,06,259,28,12,08,109,37,14,48,252,48*7A
$GPGSV,3,3,11,15,19,066,33,18,70,109,44,21,27,180,40*48
$GPZDA,203319.00,26,12,2014,00,00*6C
$GPGGA,203319,4524.9553,N,08348.8114,W,1,08,1.00,183.78,M,-35.933,M,,*72
$GPRMC,203319,A,4524.9553,N,08348.8114,W,25.1777,321.864,261214,,*0A
$GPGSA,A,3,21,24,14,19,15,22,18,27,,,,,1.6,1.0,1.1*34
$GPGSV,3,1,11,24,50,069,44,04,13,319,41,22,68,303,45,11,03,325,34*70
$GPGSV,3,2,11,19,12,286,45,27,06,259,30,12,08,109,24,14,48,252,49*74
$GPGSV,3,3,11,15,19,066,33,18,70,109,45,21,27,180,40*49
$GPZDA,203320.00,26,12,2014,00,00*66
$GPGGA,203320,4524.9610,N,08348.8177,W,1,08,1.00,184.61,M,-35.933,M,,*76
$GPRMC,203320,A,4524.9610,N,08348.8177,W,25.4758,321.699,261214,,*05
$GPGSA,A,3,21,24,14,19,15,22,18,27,,,,,1.6,1.0,1.1*34
$GPGSV,3,1,11,24,50,069,44,04,13,319,41,22,68,303,45,11,03,325,34*70
$GPGSV,3,2,11,19,12,286,41,27,06,259,28,12,08,109,30,14,48,252,49*7C
$GPGSV,3,3,11,15,19,066,33,18,70,109,45,21,27,180,40*49
$GPZDA,203321.00,26,12,2014,00,00*67
$GPGGA,203321,4524.9667,N,08348.8240,W,1,08,1.00,184.03,M,-35.933,M,,*74
$GPRMC,203321,A,4524.9667,N,08348.8240,W,25.4758,321.699,261214,,*03
$GPGSA,A,3,21,24,14,19,15,22,18,27,,,,,1.6,1.0,1.1*34
$GPGSV,3,1,11,24,50,069,44,04,13,319,41,22,68,303,45,11,03,325,34*70
$GPGSV,3,2,11,19,12,286,42,27,06,259,24,12,08,109,30,14,48,252,48*72
$GPGSV,3,3,11,15,19,066,32,18,70,109,45,21,27,180,40*48
$GPZDA,203322.00,26,12,2014,00,00*64
$GPGGA,203322,4524.9724,N,08348.8303,W,1,08,1.00,183.45,M,-35.933,M,,*72
$GPRMC,203322,A,4524.9724,N,08348.8303,W,25.7295,322.218,261214,,*09
$GPGSA,A,3,21,24,14,19,15,22,18,27,,,,,1.6,1.0,1.1*34
$GPGSV,3,1,11,24,50,069,44,04,13,319,41,22,68,303,45,11,03,325,34*70
$GPGSV,3,2,11,19,12,286,42,27,06,259,27,12,08,109,31,14,48,252,48*70
$GPGSV,3,3,11,15,19,066,33,18,70,109,45,21,27,180,38*46
$GPZDA,203323.00,26,12,2014,00,00*65
$GPGGA,203323,4524.9778,N,08348.8367,W,1,08,1.00,183.56,M,-35.933,M,,*7A
$GPRMC,203323,A,4524.9778,N,08348.8367,W,25.8928,321.821,261214,,*02
$GPGSA,A,3,21,24,14,19,15,22,18,27,,,,,1.6,1.0,1.1*34
$GPGSV,3,1,11,24,50,069,44,04,13,319,41,22,68,303,45,11,03,325,34*70
$GPGSV,3,2,11,19,12,286,42,27,06,259,32,12,08,109,25,14,48,252,48*71
$GPGSV,3,3,11,15,19,066,33,18,70,109,45,21,27,180,38*46
$GPZDA,203324.00,26,12,2014,00,00*62
$GPGGA,203324,4524.9838,N,08348.8429,W,1,08,1.00,183.70,M,-35.933,M,,*7F
$GPRMC,203324,A,4524.9838,N,08348.8429,W,25.8928,321.820,261214,,*02
$GPGSA,A,3,21,24,14,19,15,22,18,27,,,,,1.6,1.0,1.1*34
$GPGSV,3,1,11,24,50,069,44,04,13,319,41,22,68,303,45,11,03,325,34*70
$GPGSV,3,2,11,19,12,286,43,27,06,259,33,12,08,109,30,14,48,252,48*75
$GPGSV,3,3,11,15,19,066,32,18,70,109,45,21,27,180,38*47
$GPZDA,203325.00,26,12,2014,00,00*63
$GPGGA,203325,4524.9895,N,08348.8492,W,1,08,1.00,183.12,M,-35.933,M,,*7D
$GPRMC,203325,A,4524.9895,N,08348.8492,W,26.3100,321.938,261214,,*06
$GPGSA,A,3,21,24,14,19,15,22,18,27,,,,,1.6,1.0,1.1*34
$GPGSV,3,1,11,24,50,069,44,04,13,319,40,22,68,303,45,11,03,325,34*71
$GPGSV,3,2,11,19,12,286,43,27,06,259,38,12,08,109,31,14,48,252,48*7F
$GPGSV,3,3,11,15,19,066,33,18,70,109,44,21,27,180,38*47
$GPZDA,203326.00,26,12,2014,00,00*60
$GPGGA,203326,4524.9957,N,08348.8563,W,1,08,1.00,183.17,M,-35.933,M,,*7B
$GPRMC,203326,A,4524.9957,N,08348.8563,W,26.5930,321.826,261214,,*06
$GPGSA,A,3,21,24,14,19,15,22,18,27,,,,,1.6,1.0,1.1*34
$GPGSV,3,1,11,24,50,069,45,04,13,319,41,22,68,303,45,11,03,325,34*71
$GPGSV,3,2,11,19,12,286,43,27,06,259,33,12,08,109,30,14,48,253,48*74
$GPGSV,3,3,11,15,19,066,33,18,70,109,45,21,27,180,38*46
$GPZDA,203327.00,26,12,2014,00,00*61
$GPGGA,203327,4525.0014,N,08348.8625,W,1,08,1.00,182.59,M,-35.933,M,,*76
$GPRMC,203327,A,4525.0014,N,08348.8625,W,26.5930,321.826,261214,,*00
$GPGSA,A,3,21,24,14,19,15,22,18,27,,,,,1.6,1.0,1.1*34
$GPGSV,3,1,11,24,50,069,45,04,13,319,41,22,68,303,45,11,03,325,34*71
$GPGSV,3,2,11,19,12,286,44,27,06,259,28,12,08,109,40,14,48,253,48*7E
$GPGSV,3,3,11,15,19,066,33,18,70,109,45,21,27,180,38*46
$GPZDA,203328.00,26,12,2014,00,00*6E
$GPGGA,203328,4525.0074,N,08348.8688,W,1,08,1.00,182.72,M,-35.933,M,,*71
$GPRMC,203328,A,4525.0074,N,08348.8688,W,26.5930,321.826,261214,,*0E
$GPGSA,A,3,21,24,14,19,15,22,18,27,,,,,1.6,1.0,1.1*34
$GPGSV,3,1,11,24,50,069,45,04,13,319,41,22,68,303,45,11,03,325,28*7C
$GPGSV,3,2,11,19,12,286,44,27,06,259,27,12,08,109,37,14,48,253,48*71
$GPGSV,3,3,11,15,19,066,33,18,70,109,45,21,27,180,35*4B
$GPZDA,203329.00,26,12,2014,00,00*6F
$GPGGA,203329,4525.0128,N,08348.8760,W,1,08,1.00,182.77,M,-35.933,M,,*7A
$GPRMC,203329,A,4525.0128,N,08348.8760,W,26.4742,321.551,261214,,*07
$GPGSA,A,3,21,24,14,19,15,22,18,27,,,,,1.6,1.0,1.1*34
$GPGSV,3,1,10,24,50,069,45,04,13,319,41,22,68,303,44,11,03,325,28*7C
$GPGSV,3,2,10,19,12,286,44,27,06,259,26,12,08,109,22,14,48,253,48*75
$GPGSV,3,3,10,18,70,109,45,21,27,180,37*74
$GPZDA,203330.00,26,12,2014,00,00*67
$GPGGA,203330,4525.0185,N,08348.8822,W,1,07,1.40,182.19,M,-35.934,M,,*78
$GPRMC,203330,A,4525.0185,N,08348.8822,W,26.6396,321.169,261214,,*01
$GPGSA,A,3,21,24,14,19,22,18,27,,,,,,1.6,1.4,1.1*34
$GPGSV,3,1,11,24,50,069,45,04,13,319,41,22,68,303,44,11,03,325,29*7C
$GPGSV,3,2,11,19,12,286,43,27,06,259,21,12,08,109,25,14,48,253,48*73
$GPGSV,3,3,11,15,19,066,34,18,70,109,45,21,27,180,38*41
$GPZDA,203331.00,26,12,2014,00,00*66
$GPGGA,203331,4525.0246,N,08348.8885,W,1,07,1.00,182.32,M,-35.934,M,,*75
$GPRMC,203331,A,4525.0246,N,08348.8885,W,26.2232,321.040,261214,,*00
$GPGSA,A,3,21,24,14,19,15,22,18,,,,,,1.7,1.0,1.2*33
$GPGSV,3,1,10,24,50,069,45,04,13,319,41,22,68,303,44,11,03,325,30*75
$GPGSV,3,2,10,19,12,286,43,12,08,109,28,14,48,253,48,15,19,066,34*7A
$GPGSV,3,3,10,18,70,109,45,21,27,180,38*7B
$GPZDA,203332.00,26,12,2014,00,00*65
$GPGGA,203332,4525.0303,N,08348.8956,W,1,08,1.00,181.66,M,-35.934,M,,*74
$GPRMC,203332,A,4525.0303,N,08348.8956,W,26.0574,321.428,261214,,*01
$GPGSA,A,3,21,24,14,19,15,22,18,04,,,,,1.8,1.0,1.2*38
$GPGSV,3,1,11,24,50,069,45,04,13,319,41,22,68,303,44,11,03,325,30*74
$GPGSV,3,2,11,19,12,286,43,27,06,259,34,12,08,109,28,14,48,253,48*7A
$GPGSV,3,3,11,15,19,066,34,18,70,109,45,21,27,180,38*41
$GPZDA,203333.00,26,12,2014,00,00*64
$GPGGA,203333,4525.0356,N,08348.9019,W,1,09,0.80,181.78,M,-35.934,M,,*71
$GPRMC,203333,A,4525.0356,N,08348.9019,W,25.4758,321.698,261214,,*01
$GPGSA,A,3,21,24,14,19,15,22,18,27,04,,,,1.6,0.8,1.1*39
$GPGSV,3,1,10,24,50,069,45,04,13,319,41,22,68,303,44,11,03,325,30*75
$GPGSV,3,2,10,19,12,286,43,12,08,109,28,14,48,253,48,15,19,066,34*7A
$GPGSV,3,3,10,18,70,109,45,21,27,180,38*7B
$GPZDA,203334.00,26,12,2014,00,00*63
$GPGGA,203334,4525.0413,N,08348.9082,W,1,08,1.00,181.20,M,-35.934,M,,*77
$GPRMC,203334,A,4525.0413,N,08348.9082,W,25.4758,321.698,261214,,*02
$GPGSA,A,3,21,24,14,19,15,22,18,04,,,,,1.7,1.0,1.1*34
$GPGSV,3,1,11,24,50,069,45,04,13,319,41,22,68,303,44,11,03,325,30*74
$GPGSV,3,2,11,19,12,286,43,27,06,259,34,12,08,109,36,14,48,253,48*75
$GPGSV,3,3,11,15,19,066,34,18,70,109,45,21,27,180,38*41
$GPZDA,203335.00,26,12,2014,00,00*62
$GPGGA,203335,4525.0470,N,08348.9146,W,1,09,0.80,182.03,M,-35.934,M,,*70
$GPRMC,203335,A,4525.0470,N,08348.9146,W,25.1927,321.814,261214,,*06
$GPGSA,A,3,21,24,14,19,15,22,18,27,04,,,,1.6,0.8,1.1*39
$GPGSV,3,1,11,24,50,069,45,04,13,319,41,22,68,303,44,11,03,325,38*7C
$GPGSV,3,2,11,19,12,286,43,27,06,259,33,12,08,109,34,14,48,253,48*70
$GPGSV,3,3,11,15,19,066,34,18,70,109,45,21,27,180,38*41
$GPZDA,203336.00,26,12,2014,00,00*61
$GPGGA,203336,4525.0523,N,08348.9202,W,1,09,0.80,182.22,M,-35.934,M,,*74
$GPRMC,203336,A,4525.0523,N,08348.9202,W,24.8947,321.982,261214,,*01
$GPGSA,A,3,21,24,14,19,15,22,18,27,04,,,,1.5,0.8,1.1*3A
$GPGSV,3,1,11,24,50,069,45,04,13,319,41,22,68,303,44,11,03,325,36*72
$GPGSV,3,2,11,19,12,286,43,27,06,259,26,12,08,109,34,14,48,253,48*74
$GPGSV,3,3,11,15,19,066,33,18,70,109,45,21,27,180,38*46
$GPZDA,203337.00,26,12,2014,00,00*60
$GPGGA,203337,4525.0580,N,08348.9264,W,1,09,0.80,181.64,M,-35.934,M,,*7D
$GPRMC,203337,A,4525.0580,N,08348.9264,W,24.8947,321.981,261214,,*0A
$GPGSA,A,3,21,24,14,19,15,22,18,27,04,,,,1.5,0.8,1.1*3A
$GPGSV,3,1,11,24,50,069,45,04,13,319,41,22,68,303,44,11,03,325,36*72
$GPGSV,3,2,11,19,12,286,43,27,06,259,26,12,08,109,34,14,48,253,48*74
$GPGSV,3,3,11,15,19,066,33,18,70,109,45,21,27,180,38*46
$GPZDA,203338.00,26,12,2014,00,00*6F
$GPGGA,203338,4525.0633,N,08348.9328,W,1,09,0.80,181.76,M,-35.934,M,,*73
$GPRMC,203338,A,4525.0633,N,08348.9328,W,24.8947,321.981,261214,,*07
$GPGSA,A,3,21,24,14,19,15,22,18,27,04,,,,1.5,0.8,1.1*3A
$GPGSV,3,1,10,24,50,069,45,04,13,319,40,22,68,303,44,11,03,325,36*72
$GPGSV,3,2,10,19,12,286,43,12,08,109,34,14,48,253,48,15,19,066,33*70
$GPGSV,3,3,10,18,70,109,45,21,27,180,38*7B
$GPZDA,203339.00,26,12,2014,00,00*6E
$GPGGA,203339,4525.0690,N,08348.9383,W,1,08,1.00,181.26,M,-35.934,M,,*77
$GPRMC,203339,A,4525.0690,N,08348.9383,W,24.8947,321.981,261214,,*0E
$GPGSA,A,3,21,24,14,19,15,22,18,04,,,,,1.7,1.0,1.1*34
$GPGSV,3,1,10,24,50,069,45,04,13,319,41,22,68,303,44,11,03,325,37*72
$GPGSV,3,2,10,19,12,286,43,12,08,109,33,14,48,253,48,15,19,066,33*77
$GPGSV,3,3,10,18,70,109,45,21,27,180,39*7A
$GPZDA,203340.00,26,12,2014,00,00*60
$GPGGA,203340,4525.0743,N,08348.9447,W,1,08,1.00,181.38,M,-35.934,M,,*76
$GPRMC,203340,A,4525.0743,N,08348.9447,W,25.1927,321.813,261214,,*04
$GPGSA,A,3,21,24,14,19,15,22,18,04,,,,,1.7,1.0,1.2*37
$GPGSV,3,1,11,24,50,069,45,04,13,319,41,22,68,303,44,11,03,325,37*73
$GPGSV,3,2,11,19,12,286,43,27,06,259,34,12,08,109,34,14,48,253,48*77
$GPGSV,3,3,11,15,19,066,33,18,70,109,45,21,27,180,39*47
$GPZDA,203341.00,26,12,2014,00,00*61
$GPGGA,203341,4525.0796,N,08348.9511,W,1,09,0.80,181.50,M,-35.934,M,,*7B
$GPRMC,203341,A,4525.0796,N,08348.9511,W,25.1927,321.813,261214,,*0F
$GPGSA,A,3,21,24,14,19,15,22,18,27,04,,,,1.6,0.8,1.1*39
$GPGSV,3,1,11,24,50,069,46,04,13,319,41,22,68,303,44,11,03,325,37*70
$GPGSV,3,2,11,19,12,286,44,27,06,259,33,12,08,109,22,14,48,253,48*70
$GPGSV,3,3,11,15,19,066,32,18,70,109,46,21,27,180,39*45
$GPZDA,203342.00,26,12,2014,00,00*62
$GPGGA,203342,4525.0853,N,08348.9573,W,1,09,0.80,180.92,M,-35.934,M,,*75
$GPRMC,203342,A,4525.0853,N,08348.9573,W,24.8947,321.981,261214,,*0A
$GPGSA,A,3,21,24,14,19,15,22,18,27,04,,,,1.5,0.8,1.1*3A
$GPGSV,3,1,11,24,50,069,46,04,13,319,41,22,68,303,44,11,03,325,37*70
$GPGSV,3,2,11,19,12,286,44,27,06,259,28,12,08,109,24,14,48,253,48*7C
$GPGSV,3,3,11,15,19,066,32,18,70,109,46,21,27,180,39*45
$GPZDA,203343.00,26,12,2014,00,00*63
$GPGGA,203343,4525.0906,N,08348.9629,W,1,09,0.80,181.11,M,-35.934,M,,*73
$GPRMC,203343,A,4525.0906,N,08348.9629,W,24.8947,321.981,261214,,*06
$GPGSA,A,3,21,24,14,19,15,22,18,27,04,,,,1.5,0.8,1.1*3A
$GPGSV,3,1,12,24,50,069,46,04,13,319,42,22,68,303,45,11,03,325,37*71
$GPGSV,3,2,12,19,12,286,43,27,06,259,27,12,08,109,27,14,48,253,49*75
$GPGSV,3,3,12,15,19,066,32,18,70,109,46,21,27,180,39,122,13,246,18*4C
$GPZDA,203344.00,26,12,2014,00,00*64
$GPGGA,203344,4525.0963,N,08348.9693,W,1,09,0.80,181.94,M,-35.934,M,,*7B
$GPRMC,203344,A,4525.0963,N,08348.9693,W,24.4775,321.857,261214,,*0A
$GPGSA,A,3,21,24,14,19,15,22,18,27,04,,,,1.5,0.8,1.1*3A
$GPGSV,3,1,11,24,49,069,47,04,13,319,42,22,68,303,45,11,03,325,36*7A
$GPGSV,3,2,11,19,12,286,43,27,06,259,28,12,08,108,27,14,48,253,49*78
$GPGSV,3,3,11,15,19,066,33,18,69,109,46,21,27,180,39*4C
$GPZDA,203345.00,26,12,2014,00,00*65
$GPGGA,203345,4525.1016,N,08348.9756,W,1,09,0.80,180.65,M,-35.934,M,,*77
$GPRMC,203345,A,4525.1016,N,08348.9756,W,23.8968,322.156,261214,,*0B
$GPGSA,A,3,21,24,14,19,15,22,18,27,04,,,,1.5,0.8,1.1*3A
$GPGSV,3,1,11,24,49,069,47,04,13,319,42,22,68,303,45,11,03,325,36*7A
$GPGSV,3,2,11,19,12,286,43,27,06,259,27,12,08,108,27,14,48,253,49*77
$GPGSV,3,3,11,15,19,066,33,18,69,109,46,21,27,180,40*42
$GPZDA,203346.00,26,12,2014,00,00*66
$GPGGA,203346,4525.1069,N,08348.9812,W,1,09,0.80,180.84,M,-35.934,M,,*7C
$GPRMC,203346,A,4525.1069,N,08348.9812,W,22.8992,322.347,261214,,*09
$GPGSA,A,3,21,24,14,19,15,22,18,27,04,,,,1.5,0.8,1.1*3A
$GPGSV,3,1,11,24,49,069,47,04,13,319,42,22,68,303,45,11,03,325,36*7A
$GPGSV,3,2,11,19,12,286,43,27,06,259,24,12,08,108,27,14,48,253,49*74
$GPGSV,3,3,11,15,19,066,33,18,69,109,46,21,27,180,39*4C
$GPZDA,203347.00,26,12,2014,00,00*67
$GPGGA,203347,4525.1114,N,08348.9861,W,1,09,0.80,181.10,M,-35.934,M,,*7E
$GPRMC,203347,A,4525.1114,N,08348.9861,W,20.7692,322.499,261214,,*01
$GPGSA,A,3,21,24,14,19,15,22,18,27,04,,,,1.5,0.8,1.1*3A
$GPGSV,3,1,11,24,49,069,47,04,13,319,42,22,68,303,45,11,03,325,30*7C
$GPGSV,3,2,11,19,12,286,43,27,06,259,26,12,08,108,38,14,48,253,49*78
$GPGSV,3,3,11,15,19,066,33,18,69,109,46,21,27,180,39*4C
$GPZDA,203348.00,26,12,2014,00,00*68
$GPGGA,203348,4525.1159,N,08348.9910,W,1,09,0.80,181.35,M,-35.934,M,,*78
$GPRMC,203348,A,4525.1159,N,08348.9910,W,17.6426,322.962,261214,,*01
$GPGSA,A,3,21,24,14,19,15,22,18,27,04,,,,1.5,0.8,1.1*3A
$GPGSV,3,1,11,24,49,069,47,04,13,319,42,22,68,303,44,11,03,325,30*7D
$GPGSV,3,2,11,19,12,286,44,27,06,259,34,12,08,108,36,14,48,253,48*73
$GPGSV,3,3,11,15,19,066,34,18,69,109,46,21,27,180,31*43
$GPZDA,203349.00,26,12,2014,00,00*69
$GPGGA,203349,4525.1195,N,08348.9945,W,1,09,0.80,181.74,M,-35.934,M,,*7C
$GPRMC,203349,A,4525.1195,N,08348.9945,W,13.7863,324.981,261214,,*03
$GPGSA,A,3,21,24,14,19,15,22,18,27,04,,,,1.5,0.8,1.1*3A
$GPGSV,3,1,11,24,49,069,47,04,13,319,41,22,68,303,44,11,03,325,29*76
$GPGSV,3,2,11,19,12,286,43,27,06,259,32,12,08,108,23,14,48,253,48*76
$GPGSV,3,3,11,15,19,066,34,18,69,109,46,21,27,180,31*43
$GPZDA,203350.00,26,12,2014,00,00*61
$GPGGA,203350,4525.1219,N,08348.9965,W,1,09,0.80,181.56,M,-35.934,M,,*71
$GPRMC,203350,A,4525.1219,N,08348.9965,W,8.8438,331.043,261214,,*3A
$GPGSA,A,3,21,24,14,19,15,22,18,27,04,,,,1.5,0.8,1.1*3A
$GPGSV,3,1,11,24,49,069,47,04,13,319,41,22,68,303,44,11,03,325,29*76
$GPGSV,3,2,11,19,12,286,37,27,06,259,32,12,08,108,28,14,48,253,48*7E
$GPGSV,3,3,11,15,19,066,34,18,69,109,46,21,27,180,31*43
$GPZDA,203351.00,26,12,2014,00,00*60
$GPGGA,203351,4525.1235,N,08348.9979,W,1,09,0.80,181.44,M,-35.934,M,,*70
$GPRMC,203351,A,4525.1235,N,08348.9979,W,4.6315,333.014,261214,,*32
$GPGSA,A,3,21,24,14,19,15,22,18,27,04,,,,1.5,0.8,1.1*3A
$GPGSV,3,1,11,24,49,069,47,04,13,319,41,22,68,303,44,11,03,325,30*7E
$GPGSV,3,2,11,19,12,286,39,27,06,259,32,12,08,108,28,14,48,253,48*70
$GPGSV,3,3,11,15,19,066,34,18,69,109,46,21,27,180,31*43
$GPZDA,203352.00,26,12,2014,00,00*63
$GPGGA,203352,4525.1247,N,08348.9985,W,1,09,0.80,180.68,M,-35.934,M,,*7A
$GPRMC,203352,A,4525.1247,N,08348.9985,W,4.0507,343.337,261214,,*31
$GPGSA,A,3,21,24,14,19,15,22,18,27,04,,,,1.5,0.8,1.1*3A
$GPGSV,3,1,11,24,49,069,43,04,13,319,38,22,68,303,44,11,03,325,31*75
$GPGSV,3,2,11,19,12,286,39,27,06,259,32,12,08,108,24,14,48,253,34*77
$GPGSV,3,3,11,15,19,066,34,18,69,109,45,21,27,180,31*40
$GPZDA,203353.00,26,12,2014,00,00*62
$GPGGA,203353,4525.1259,N,08348.9992,W,1,09,0.80,181.33,M,-35.934,M,,*7D
$GPRMC,203353,A,4525.1259,N,08348.9992,W,5.5194,359.332,261214,,*3D
$GPGSA,A,3,21,24,14,19,15,22,18,27,04,,,,1.5,0.8,1.1*3A
$GPGSV,3,1,10,24,49,069,44,04,13,319,39,22,68,303,43,11,03,325,39*7D
$GPGSV,3,2,10,19,12,286,38,27,06,259,32,12,08,108,23,14,48,253,44*77
$GPGSV,3,3,10,18,69,109,45,21,27,180,31*7A
$GPZDA,203354.00,26,12,2014,00,00*65
$GPGGA,203354,4525.1277,N,08348.9982,W,1,08,1.20,180.74,M,-35.934,M,,*7F
$GPRMC,203354,A,4525.1277,N,08348.9982,W,7.4205,17.786,261214,,*0D
$GPGSA,A,3,21,24,14,19,22,18,27,04,,,,,1.5,1.2,1.0*34
$GPGSV,3,1,11,24,49,069,44,04,13,319,39,22,68,303,44,11,03,325,38*7A
$GPGSV,3,2,11,19,12,286,32,27,06,259,32,12,08,108,23,14,48,253,43*7B
$GPGSV,3,3,11,15,19,066,40,18,69,109,45,21,27,180,31*43
$GPZDA,203355.00,26,12,2014,00,00*64
$GPGGA,203355,4525.1296,N,08348.9972,W,1,09,0.80,181.55,M,-35.934,M,,*76
$GPRMC,203355,A,4525.1296,N,08348.9972,W,7.8873,36.181,261214,,*09
$GPGSA,A,3,21,24,14,19,15,22,18,27,04,,,,1.6,0.8,1.1*39
$GPGSV,3,1,11,24,49,069,45,04,13,319,38,22,68,303,44,11,03,325,37*75
$GPGSV,3,2,11,19,12,286,33,27,06,259,32,12,08,108,24,14,48,253,43*7D
$GPGSV,3,3,11,15,19,066,40,18,69,109,45,21,27,180,41*44
$GPZDA,203356.00,26,12,2014,00,00*67
$GPGGA,203356,4525.1314,N,08348.9947,W,1,09,0.80,181.11,M,-35.934,M,,*78
$GPRMC,203356,A,4525.1314,N,08348.9947,W,10.9971,49.678,261214,,*3A
$GPGSA,A,3,21,24,14,19,15,22,18,27,04,,,,1.5,0.8,1.1*3A
$GPGSV,3,1,11,24,49,069,46,04,13,319,32,22,68,303,44,11,03,325,36*7D
$GPGSV,3,2,11,19,12,286,35,27,06,259,32,12,08,108,25,14,48,253,44*7D
$GPGSV,3,3,11,15,19,066,41,18,69,109,45,21,27,180,42*46
$GPZDA,203357.00,26,12,2014,00,00*66
$GPGGA,203357,4525.1338,N,08348.9906,W,1,09,0.80,180.83,M,-35.934,M,,*78
$GPRMC,203357,A,4525.1338,N,08348.9906,W,14.5455,52.028,261214,,*3A
$GPGSA,A,3,21,24,14,19,15,22,18,27,04,,,,1.5,0.8,1.1*3A
$GPGSV,3,1,11,24,49,069,46,04,13,319,30,22,68,303,43,11,03,325,36*78
$GPGSV,3,2,11,19,12,286,34,27,06,259,32,12,08,108,24,14,48,253,44*7D
$GPGSV,3,3,11,15,19,066,41,18,69,109,45,21,27,180,42*46
$GPZDA,203358.00,26,12,2014,00,00*69
$GPGGA,203358,4525.1366,N,08348.9857,W,1,09,0.80,181.35,M,-35.934,M,,*75
$GPRMC,203358,A,4525.1366,N,08348.9857,W,15.9062,53.140,261214,,*38
$GPGSA,A,3,21,24,14,19,15,22,18,27,04,,,,1.5,0.8,1.1*3A
$GPGSV,3,1,11,24,49,069,46,04,13,319,30,22,68,303,43,11,03,325,35*7B
$GPGSV,3,2,11,19,12,286,34,27,06,259,32,12,08,108,40,14,48,253,45*7E
$GPGSV,3,3,11,15,19,066,41,18,69,109,46,21,27,180,42*45
$GPZDA,203359.00,26,12,2014,00,00*68
$GPGGA,203359,4525.1390,N,08348.9800,W,1,09,0.80,181.22,M,-35.934,M,,*79
$GPRMC,203359,A,4525.1390,N,08348.9800,W,17.6205,52.821,261214,,*33
$GPGSA,A,3,21,24,14,19,15,22,18,27,04,,,,1.5,0.8,1.1*3A
$GPGSV,3,1,11,24,49,069,46,04,13,319,31,22,68,303,43,11,03,325,35*7A
$GPGSV,3,2,11,19,12,286,34,27,06,259,24,12,08,108,38,14,48,253,45*76
$GPGSV,3,3,11,15,19,066,42,18,69,109,46,21,27,180,42*46
$GPZDA,203400.00,26,12,2014,00,00*63
$GPGGA,203400,4525.1425,N,08348.9742,W,1,09,0.80,180.41,M,-35.934,M,,*76
$GPRMC,203400,A,4525.1425,N,08348.9742,W,20.6978,53.378,261214,,*3B
$GPGSA,A,3,21,24,14,19,15,22,18,27,04,,,,1.5,0.8,1.1*3A
$GPGSV,3,1,11,24,49,069,46,04,13,319,31,22,68,303,42,11,03,325,35*7B
$GPGSV,3,2,11,19,12,286,34,27,06,259,24,12,08,108,37,14,48,253,45*79
$GPGSV,3,3,11,15,19,066,42,18,69,109,46,21,27,180,42*46
$GPZDA,203401.00,26,12,2014,00,00*62
$GPGGA,203401,4525.1460,N,08348.9677,W,1,09,0.80,181.09,M,-35.934,M,,*7C
$GPRMC,203401,A,4525.1460,N,08348.9677,W,21.1062,53.106,261214,,*33
$GPGSA,A,3,21,24,14,19,15,22,18,27,04,,,,1.5,0.8,1.1*3A
$GPGSV,3,1,11,24,49,069,46,04,13,319,31,22,68,303,42,11,03,325,16*7A
$GPGSV,3,2,11,19,12,286,34,27,06,259,26,12,08,108,37,14,48,253,45*7B
$GPGSV,3,3,11,15,19,066,42,18,69,109,46,21,27,180,42*46
$GPZDA,203402.00,26,12,2014,00,00*61
$GPGGA,203402,4525.1499,N,08348.9611,W,1,09,0.80,181.07,M,-35.934,M,,*77
$GPRMC,203402,A,4525.1499,N,08348.9611,W,20.2096,52.824,261214,,*37
$GPGSA,A,3,21,24,14,19,15,22,18,27,04,,,,1.5,0.8,1.1*3A
$GPGSV,3,1,11,24,49,069,46,04,13,319,31,22,68,303,43,11,03,325,20*7E
$GPGSV,3,2,11,19,12,286,34,27,06,259,34,12,08,108,37,14,48,253,45*78
$GPGSV,3,3,11,15,19,066,42,18,69,109,46,21,27,180,42*46
$GPZDA,203403.00,26,12,2014,00,00*60
$GPGGA,203403,4525.1530,N,08348.9546,W,1,09,0.80,181.03,M,-35.934,M,,*71
$GPRMC,203403,A,4525.1530,N,08348.9546,W,18.7237,52.308,261214,,*37
$GPGSA,A,3,21,24,14,19,15,22,18,27,04,,,,1.5,0.8,1.1*3A
$GPGSV,3,1,11,24,49,069,47,04,13,319,31,22,68,303,43,11,03,325,21*7E
$GPGSV,3,2,11,19,12,286,34,27,06,259,32,12,08,108,38,14,48,253,45*71
$GPGSV,3,3,11,15,19,066,42,18,69,109,46,21,27,180,42*46
$GPZDA,203404.00,26,12,2014,00,00*67
$GPGGA,203404,4525.1561,N,08348.9496,W,1,09,0.80,180.85,M,-35.934,M,,*71
$GPRMC,203404,A,4525.1561,N,08348.9496,W,15.9062,53.141,261214,,*37
$GPGSA,A,3,21,24,14,19,15,22,18,27,04,,,,1.5,0.8,1.1*3A
$GPGSV,3,1,11,24,49,069,47,04,13,319,31,22,68,303,42,11,03,325,22*7C
$GPGSV,3,2,11,19,12,286,34,27,06,259,21,12,08,108,39,14,48,253,45*72
$GPGSV,3,3,11,15,19,066,42,18,69,109,46,21,27,180,42*46
$GPZDA,203405.00,26,12,2014,00,00*66
$GPGGA,203405,4525.1578,N,08348.9448,W,1,09,0.80,180.63,M,-35.934,M,,*73
$GPRMC,203405,A,4525.1578,N,08348.9448,W,12.1950,53.953,261214,,*31
$GPGSA,A,3,21,24,14,19,15,22,18,27,04,,,,1.5,0.8,1.1*3A
$GPGSV,3,1,11,24,49,069,46,04,13,319,25,22,68,303,42,11,03,325,22*78
$GPGSV,3,2,11,19,12,286,34,27,06,259,22,12,08,108,29,14,48,253,39*7B
$GPGSV,3,3,11,15,19,066,42,18,69,109,45,21,27,180,42*45
$GPZDA,203406.00,26,12,2014,00,00*65
$GPGGA,203406,4525.1599,N,08348.9415,W,1,09,0.80,180.98,M,-35.934,M,,*73
$GPRMC,203406,A,4525.1599,N,08348.9415,W,8.9537,59.214,261214,,*09
$GPGSA,A,3,21,24,14,19,15,22,18,27,04,,,,1.5,0.8,1.1*3A
$GPGSV,3,1,11,24,49,069,46,04,13,319,25,22,68,303,40,11,03,325,24*7C
$GPGSV,3,2,11,19,12,286,34,27,06,259,23,12,08,108,31,14,48,253,38*72
$GPGSV,3,3,11,15,19,066,42,18,69,109,45,21,27,180,37*47
$GPZDA,203407.00,26,12,2014,00,00*64
$GPGGA,203407,4525.1609,N,08348.9390,W,1,09,0.80,180.52,M,-35.934,M,,*74
$GPRMC,203407,A,4525.1609,N,08348.9390,W,5.4856,62.179,261214,,*02
$GPGSA,A,3,21,24,14,19,15,22,18,27,04,,,,1.5,0.8,1.1*3A
$GPGSV,3,1,11,24,49,069,46,04,13,319,26,22,68,303,39,11,03,325,30*74
$GPGSV,3,2,11,19,12,286,34,27,06,259,24,12,08,108,30,14,48,253,37*7B
$GPGSV,3,3,11,15,19,066,42,18,69,109,43,21,27,180,35*43
$GPZDA,203408.00,26,12,2014,00,00*6B
$GPGGA,203408,4525.1612,N,08348.9374,W,1,09,0.80,179.97,M,-35.934,M,,*74
$GPRMC,203408,A,4525.1612,N,08348.9374,W,3.6843,72.450,261214,,*02
$GPGSA,A,3,21,24,14,19,15,22,18,27,04,,,,1.5,0.8,1.1*3A
$GPGSV,3,1,11,24,49,069,46,04,13,319,35,22,68,303,40,11,03,325,31*79
$GPGSV,3,2,11,19,12,286,34,27,06,259,24,12,08,108,30,14,48,253,37*7B
$GPGSV,3,3,11,15,19,066,42,18,69,109,44,21,27,180,43*45
$GPZDA,203409.00,26,12,2014,00,00*6A
$GPGGA,203409,4525.1615,N,08348.9359,W,1,09,0.80,180.84,M,-35.934,M,,*79
$GPRMC,203409,A,4525.1615,N,08348.9359,W,4.8838,90.337,261214,,*04
$GPGSA,A,3,21,24,14,19,15,22,18,27,04,,,,1.5,0.8,1.1*3A
$GPGSV,3,1,11,24,49,069,46,04,13,319,36,22,68,303,43,11,03,325,32*7A
$GPGSV,3,2,11,19,12,286,34,27,06,259,32,12,08,108,29,14,48,253,38*7B
$GPGSV,3,3,11,15,19,066,42,18,69,109,44,21,27,180,41*47
$GPZDA,203410.00,26,12,2014,00,00*62
$GPGGA,203410,4525.1606,N,08348.9337,W,1,09,0.80,181.05,M,-35.934,M,,*73
$GPRMC,203410,A,4525.1606,N,08348.9337,W,7.0798,109.851,261214,,*32
$GPGSA,A,3,21,24,14,19,15,22,18,27,04,,,,1.5,0.8,1.1*3A
$GPGSV,3,1,11,24,49,069,46,04,13,319,35,22,68,303,42,11,03,325,32*78
$GPGSV,3,2,11,19,12,286,35,27,06,259,32,12,08,108,24,14,48,253,39*76
$GPGSV,3,3,11,15,19,066,42,18,69,109,38,21,27,180,40*4D
$GPZDA,203411.00,26,12,2014,00,00*63
$GPGGA,203411,4525.1597,N,08348.9307,W,1,09,0.80,181.34,M,-35.934,M,,*78
$GPRMC,203411,A,4525.1597,N,08348.9307,W,7.4690,126.307,261214,,*33
$GPGSA,A,3,21,24,14,19,15,22,18,27,04,,,,1.5,0.8,1.1*3A
$GPGSV,3,1,11,24,49,069,46,04,13,319,35,22,68,303,41,11,03,325,20*78
$GPGSV,3,2,11,19,12,286,38,27,06,259,31,12,08,108,34,14,48,253,45*72
$GPGSV,3,3,11,15,19,066,30,18,69,109,41,21,27,180,40*46
$GPZDA,203412.00,26,12,2014,00,00*60
$GPGGA,203412,4525.1584,N,08348.9285,W,1,09,0.80,180.84,M,-35.934,M,,*78
$GPRMC,203412,A,4525.1584,N,08348.9285,W,9.7373,137.852,261214,,*37
$GPGSA,A,3,21,24,14,19,15,22,18,27,04,,,,1.5,0.8,1.1*3A
$GPGSV,3,1,11,24,49,069,46,04,13,319,34,22,68,303,42,11,03,325,23*79
$GPGSV,3,2,11,19,12,286,39,27,06,259,32,12,08,108,34,14,48,253,45*70
$GPGSV,3,3,11,15,19,066,28,18,69,109,43,21,27,180,40*4D
$GPZDA,203413.00,26,12,2014,00,00*61
$GPGGA,203413,4525.1556,N,08348.9249,W,1,09,0.80,180.46,M,-35.934,M,,*78
$GPRMC,203413,A,4525.1556,N,08348.9249,W,13.9369,140.014,261214,,*0D
$GPGSA,A,3,21,24,14,19,15,22,18,27,04,,,,1.5,0.8,1.1*3A
$GPGSV,3,1,11,24,49,069,46,04,13,319,34,22,68,303,42,11,03,325,25*7F
$GPGSV,3,2,11,19,12,286,39,27,06,259,31,12,08,108,37,14,48,253,45*70
$GPGSV,3,3,11,15,19,066,28,18,69,109,44,21,27,180,40*4A
$GPZDA,203414.00,26,12,2014,00,00*66
$GPGGA,203414,4525.1523,N,08348.9215,W,1,09,0.80,180.78,M,-35.934,M,,*79
$GPRMC,203414,A,4525.1523,N,08348.9215,W,15.8231,139.259,261214,,*0F
$GPGSA,A,3,21,24,14,19,15,22,18,27,04,,,,1.5,0.8,1.1*3A
$GPGSV,3,1,11,24,49,069,47,04,13,319,34,22,68,303,42,11,03,325,27*7C
$GPGSV,3,2,11,19,12,286,40,27,06,259,31,12,08,108,38,14,48,253,45*71
$GPGSV,3,3,11,15,19,067,34,18,69,109,44,21,26,180,40*47
$GPZDA,203415.00,26,12,2014,00,00*67
$GPGGA,203415,4525.1487,N,08348.9172,W,1,09,0.80,180.46,M,-35.934,M,,*78
$GPRMC,203415,A,4525.1487,N,08348.9172,W,17.3677,139.781,261214,,*0C
$GPGSA,A,3,21,24,14,19,15,22,18,27,04,,,,1.5,0.8,1.1*3A
$GPGSV,3,1,11,24,49,069,46,04,13,319,34,22,68,303,42,11,03,325,27*7D
$GPGSV,3,2,11,19,12,286,40,27,06,259,31,12,08,108,31,14,48,253,45*78
$GPGSV,3,3,11,15,19,067,37,18,69,109,44,21,26,180,40*44
$GPZDA,203416.00,26,12,2014,00,00*64
$GPGGA,203416,4525.1446,N,08348.9123,W,1,09,0.80,180.92,M,-35.934,M,,*7B
$GPRMC,203416,A,4525.1446,N,08348.9123,W,20.7443,140.463,261214,,*02
$GPGSA,A,3,21,24,14,19,15,22,18,27,04,,,,1.5,0.8,1.1*3A
$GPGSV,3,1,11,24,49,069,46,04,13,319,34,22,68,303,42,11,03,325,26*7C
$GPGSV,3,2,11,19,12,286,40,27,06,259,34,12,08,108,27,14,48,253,45*7A
$GPGSV,3,3,11,15,19,067,37,18,69,109,44,21,26,180,40*44
$GPZDA,203417.00,26,12,2014,00,00*65
$GPGGA,203417,4525.1397,N,08348.9067,W,1,09,0.80,181.44,M,-35.934,M,,*7A
$GPRMC,203417,A,4525.1397,N,08348.9067,W,23.4077,140.974,261214,,*01
$GPGSA,A,3,21,24,14,19,15,22,18,27,04,,,,1.5,0.8,1.1*3A
$GPGSV,3,1,11,24,49,069,46,04,13,319,34,22,68,303,42,11,03,325,26*7C
$GPGSV,3,2,11,19,12,286,40,27,06,259,32,12,08,108,37,14,48,253,45*7D
$GPGSV,3,3,11,15,19,067,38,18,69,109,44,21,26,180,40*4B
$GPZDA,203418.00,26,12,2014,00,00*6A
$GPGGA,203418,4525.1343,N,08348.9003,W,1,09,0.80,181.32,M,-35.934,M,,*7F
$GPRMC,203418,A,4525.1343,N,08348.9003,W,24.1077,141.005,261214,,*09
$GPGSA,A,3,21,24,14,19,15,22,18,27,04,,,,1.5,0.8,1.1*3A
$GPGSV,3,1,11,24,49,069,46,04,13,319,34,22,68,303,42,11,03,325,26*7C
$GPGSV,3,2,11,19,12,286,40,27,06,259,18,12,08,108,32,14,48,253,45*70
$GPGSV,3,3,11,15,19,067,34,18,69,109,44,21,26,180,40*47
$GPZDA,203419.00,26,12,2014,00,00*6B
$GPGGA,203419,4525.1291,N,08348.8947,W,1,09,0.80,181.13,M,-35.934,M,,*7B
$GPRMC,203419,A,4525.1291,N,08348.8947,W,26.0726,141.381,261214,,*01
$GPGSA,A,3,21,24,14,19,15,22,18,27,04,,,,1.5,0.8,1.1*3A
$GPGSV,3,1,11,24,49,069,46,04,13,319,34,22,68,303,42,11,03,325,26*7C
$GPGSV,3,2,11,19,12,286,34,27,06,259,26,12,08,108,33,14,48,253,46*7C
$GPGSV,3,3,11,15,19,067,38,18,69,109,45,21,26,180,41*4B
$GPZDA,203420.00,26,12,2014,00,00*61
$GPGGA,203420,4525.1229,N,08348.8877,W,1,09,0.80,181.07,M,-35.934,M,,*75
$GPRMC,203420,A,4525.1229,N,08348.8877,W,26.7422,142.005,261214,,*06
$GPGSA,A,3,21,24,14,19,15,22,18,27,04,,,,1.5,0.8,1.1*3A
$GPGSV,3,1,10,24,49,069,46,04,13,319,34,22,68,303,42,11,03,325,26*7D
$GPGSV,3,2,10,19,12,286,34,27,06,259,26,14,48,253,46,15,19,067,38*79
$GPGSV,3,3,10,18,69,109,45,21,26,180,41*7C
$GPZDA,203421.00,26,12,2014,00,00*60
$GPGGA,203421,4525.1172,N,08348.8814,W,1,09,0.80,181.65,M,-35.934,M,,*78
$GPRMC,203421,A,4525.1172,N,08348.8814,W,26.9062,141.624,261214,,*07
$GPGSA,A,3,21,24,14,19,15,22,18,27,04,,,,1.9,0.8,1.3*34
$GPGSV,3,1,11,24,49,069,46,04,13,319,34,22,68,303,42,11,03,325,26*7C
$GPGSV,3,2,11,19,12,286,34,27,06,259,26,12,08,108,30,14,48,253,46*7F
$GPGSV,3,3,11,15,19,067,39,18,69,109,45,21,26,180,40*4B
$GPZDA,203422.00,26,12,2014,00,00*63
$GPGGA,203422,4525.1112,N,08348.8751,W,1,09,0.80,181.52,M,-35.934,M,,*77
$GPRMC,203422,A,4525.1112,N,08348.8751,W,26.7727,141.398,261214,,*06
$GPGSA,A,3,21,24,14,19,15,22,18,27,04,,,,1.5,0.8,1.1*3A
$GPGSV,3,1,11,24,49,069,46,04,13,319,33,22,68,303,42,11,03,325,26*7B
$GPGSV,3,2,11,19,12,286,17,27,06,259,26,12,08,108,29,14,48,253,46*76
$GPGSV,3,3,11,15,19,067,39,18,69,109,45,21,26,180,41*4A
$GPZDA,203423.00,26,12,2014,00,00*62
$GPGGA,203423,4525.1054,N,08348.8681,W,1,09,0.80,182.17,M,-35.934,M,,*7B
$GPRMC,203423,A,4525.1054,N,08348.8681,W,26.7727,141.398,261214,,*08
$GPGSA,A,3,21,24,14,19,15,22,18,27,04,,,,1.5,0.8,1.1*3A
$GPGSV,3,1,11,24,49,069,46,04,13,319,33,22,68,303,42,11,03,325,26*7B
$GPGSV,3,2,11,19,12,286,25,27,06,259,25,12,08,108,26,14,48,253,46*7B
$GPGSV,3,3,11,15,19,067,38,18,69,109,45,21,26,180,41*4B
$GPZDA,203424.00,26,12,2014,00,00*65
$GPGGA,203424,4525.0993,N,08348.8618,W,1,09,0.80,182.04,M,-35.934,M,,*7D
$GPRMC,203424,A,4525.0993,N,08348.8618,W,26.7727,141.398,261214,,*0C
$GPGSA,A,3,21,24,14,19,15,22,18,27,04,,,,1.5,0.8,1.1*3A
$GPGSV,3,1,10,24,49,069,46,04,13,319,33,22,68,303,42,11,03,325,26*7A
$GPGSV,3,2,10,19,12,286,41,27,06,259,36,14,48,253,46,15,19,067,38*7A
$GPGSV,3,3,10,18,69,109,45,21,26,180,41*7C
$GPZDA,203425.00,26,12,2014,00,00*64
$GPGGA,203425,4525.0936,N,08348.8548,W,1,09,0.80,182.70,M,-35.934,M,,*76
$GPRMC,203425,A,4525.0936,N,08348.8548,W,26.7727,141.398,261214,,*04
$GPGSA,A,3,21,24,14,19,15,22,18,27,04,,,,1.9,0.8,1.3*34
$GPGSV,3,1,11,24,49,069,46,04,13,319,33,22,68,303,42,11,03,325,26*7B
$GPGSV,3,2,11,19,12,286,42,27,06,259,34,12,08,108,33,14,48,253,46*7E
$GPGSV,3,3,11,15,19,067,32,18,69,109,45,21,26,180,41*41
$GPZDA,203426.00,26,12,2014,00,00*67
$GPGGA,203426,4525.0875,N,08348.8485,W,1,09,0.80,182.56,M,-35.934,M,,*77
$GPRMC,203426,A,4525.0875,N,08348.8485,W,27.0713,141.248,261214,,*0C
$GPGSA,A,3,21,24,14,19,15,22,18,27,04,,,,1.5,0.8,1.1*3A
$GPGSV,3,1,11,24,49,069,46,04,13,319,33,22,68,303,42,11,03,325,26*7B
$GPGSV,3,2,11,19,12,286,42,27,06,259,33,12,08,108,39,14,48,253,46*73
$GPGSV,3,3,11,15,19,067,35,18,69,109,45,21,26,180,41*46
$GPZDA,203427.00,26,12,2014,00,00*66
$GPGGA,203427,4525.0814,N,08348.8414,W,1,09,0.80,182.51,M,-35.934,M,,*7E
$GPRMC,203427,A,4525.0814,N,08348.8414,W,27.0713,141.249,261214,,*03
$GPGSA,A,3,21,24,14,19,15,22,18,27,04,,,,1.5,0.8,1.1*3A
$GPGSV,3,1,11,24,49,069,46,04,13,319,33,22,68,303,43,11,03,325,26*7A
$GPGSV,3,2,11,19,12,286,41,27,06,259,21,12,08,108,39,14,48,253,46*73
$GPGSV,3,3,11,15,19,067,36,18,69,109,45,21,26,180,41*45
$GPZDA,203428.00,26,12,2014,00,00*69
$GPGGA,203428,4525.0757,N,08348.8352,W,1,09,0.80,183.09,M,-35.934,M,,*70
$GPRMC,203428,A,4525.0757,N,08348.8352,W,26.9386,141.022,261214,,*0E
$GPGSA,A,3,21,24,14,19,15,22,18,27,04,,,,1.5,0.8,1.1*3A
$GPGSV,3,1,11,24,49,069,46,04,13,319,33,22,68,303,43,11,03,325,26*7A
$GPGSV,3,2,11,19,12,286,28,27,06,259,22,12,08,108,38,14,48,253,46*7E
$GPGSV,3,3,11,15,19,067,36,18,69,109,45,21,26,180,41*45
$GPZDA,203429.00,26,12,2014,00,00*68
$GPGGA,203429,4525.0696,N,08348.8281,W,1,09,0.80,183.03,M,-35.934,M,,*78
$GPRMC,203429,A,4525.0696,N,08348.8281,W,27.4880,141.370,261214,,*09
$GPGSA,A,3,21,24,14,19,15,22,18,27,04,,,,1.5,0.8,1.1*3A
$GPGSV,3,1,11,24,49,069,46,04,13,319,33,22,68,303,43,11,03,325,26*7A
$GPGSV,3,2,11,19,12,286,29,27,06,259,21,12,08,108,45,14,48,253,46*76
$GPGSV,3,3,11,15,19,067,36,18,69,109,45,21,26,180,41*45
$GPZDA,203430.00,26,12,2014,00,00*60
$GPGGA,203430,4525.0635,N,08348.8218,W,1,09,0.80,182.90,M,-35.934,M,,*72
$GPRMC,203430,A,4525.0635,N,08348.8218,W,27.3232,141.741,261214,,*0A
$GPGSA,A,3,21,24,14,19,15,22,18,27,04,,,,1.5,0.8,1.1*3A
$GPGSV,3,1,11,24,49,069,46,04,13,319,34,22,68,303,43,11,03,325,26*7D
$GPGSV,3,2,11,19,12,286,39,27,06,259,21,12,08,108,42,14,48,253,46*70
$GPGSV,3,3,11,15,19,067,36,18,69,109,46,21,26,180,41*46
$GPZDA,203431.00,26,12,2014,00,00*61
$GPGGA,203431,4525.0574,N,08348.8148,W,1,09,0.80,182.84,M,-35.934,M,,*76
$GPRMC,203431,A,4525.0574,N,08348.8148,W,27.1595,142.117,261214,,*05
$GPGSA,A,3,21,24,14,19,15,22,18,27,04,,,,1.5,0.8,1.1*3A
$GPGSV,3,1,11,24,49,069,46,04,13,319,34,22,68,303,43,11,03,325,27*7C
$GPGSV,3,2,11,19,12,286,34,27,06,259,27,12,08,108,35,14,48,253,46*7B
$GPGSV,3,3,11,15,19,067,37,18,69,109,46,21,26,180,41*47
$GPZDA,203432.00,26,12,2014,00,00*62
$GPGGA,203432,4525.0517,N,08348.8085,W,1,09,0.80,183.42,M,-35.934,M,,*7B
$GPRMC,203432,A,4525.0517,N,08348.8085,W,27.3232,141.741,261214,,*0D
$GPGSA,A,3,21,24,14,19,15,22,18,27,04,,,,1.5,0.8,1.1*3A
$GPGSV,3,1,11,24,49,069,46,04,13,319,34,22,68,303,43,11,03,325,29*72
$GPGSV,3,2,11,19,12,286,35,27,06,259,26,12,08,108,35,14,48,253,46*7B
$GPGSV,3,3,11,15,19,067,37,18,69,109,46,21,26,180,41*47
$GPZDA,203433.00,26,12,2014,00,00*63
$GPGGA,203433,4525.0455,N,08348.8015,W,1,09,0.80,183.37,M,-35.934,M,,*76
$GPRMC,203433,A,4525.0455,N,08348.8015,W,27.3232,141.742,261214,,*01
$GPGSA,A,3,21,24,14,19,15,22,18,27,04,,,,1.5,0.8,1.1*3A
$GPGSV,3,1,11,24,49,069,46,04,13,319,34,22,68,303,43,11,03,325,28*73
$GPGSV,3,2,11,19,12,286,38,27,06,259,25,12,08,108,37,14,48,253,46*77
$GPGSV,3,3,11,15,19,067,37,18,69,109,46,21,26,180,42*44
$GPZDA,203434.00,26,12,2014,00,00*64
$GPGGA,203434,4525.0394,N,08348.7944,W,1,09,0.80,183.31,M,-35.934,M,,*7F
$GPRMC,203434,A,4525.0394,N,08348.7944,W,27.0713,141.249,261214,,*05
$GPGSA,A,3,21,24,14,19,15,22,18,27,04,,,,1.5,0.8,1.1*3A
$GPGSV,3,1,11,24,49,069,47,04,13,319,34,22,68,303,43,11,03,325,27*7D
$GPGSV,3,2,11,19,12,286,43,27,06,259,25,12,08,108,45,14,48,253,46*7E
$GPGSV,3,3,11,15,19,067,36,18,69,109,46,21,26,180,42*45
$GPZDA,203435.00,26,12,2014,00,00*65
$GPGGA,203435,4525.0337,N,08348.7881,W,1,09,0.80,183.89,M,-35.934,M,,*7C
$GPRMC,203435,A,4525.0337,N,08348.7881,W,27.0713,141.249,261214,,*05
$GPGSA,A,3,21,24,14,19,15,22,18,27,04,,,,1.5,0.8,1.1*3A
$GPGSV,3,1,11,24,49,069,47,04,13,319,34,22,68,303,43,11,03,325,27*7D
$GPGSV,3,2,11,19,12,286,42,27,06,259,25,12,08,108,44,14,48,253,46*7E
$GPGSV,3,3,11,15,19,067,37,18,69,109,46,21,26,180,42*44
$GPZDA,203436.00,26,12,2014,00,00*66
$GPGGA,203436,4525.0276,N,08348.7811,W,1,09,0.80,183.83,M,-35.934,M,,*78
$GPRMC,203436,A,4525.0276,N,08348.7811,W,27.0713,141.249,261214,,*0B
$GPGSA,A,3,21,24,14,19,15,22,18,27,04,,,,1.5,0.8,1.1*3A
$GPGSV,3,1,11,24,49,069,47,04,13,319,34,22,68,303,43,11,03,325,18*71
$GPGSV,3,2,11,19,12,286,38,27,06,259,25,12,08,108,39,14,48,253,46*79
$GPGSV,3,3,11,15,19,067,37,18,69,109,46,21,26,180,42*44
$GPZDA,203437.00,26,12,2014,00,00*67
$GPGGA,203437,4525.0215,N,08348.7748,W,1,09,0.80,183.70,M,-35.934,M,,*73
$GPRMC,203437,A,4525.0215,N,08348.7748,W,27.2046,141.474,261214,,*01
$GPGSA,A,3,21,24,14,19,15,22,18,27,04,,,,1.5,0.8,1.1*3A
$GPGSV,3,1,11,24,49,069,47,04,13,319,34,22,68,303,43,11,03,325,21*7B
$GPGSV,3,2,11,19,12,286,41,27,06,259,25,12,08,108,41,14,48,253,46*78
$GPGSV,3,3,11,15,19,067,37,18,69,109,46,21,26,180,42*44
$GPZDA,203438.00,26,12,2014,00,00*68
$GPGGA,203438,4525.0154,N,08348.7678,W,1,09,0.80,183.64,M,-35.934,M,,*7D
$GPRMC,203438,A,4525.0154,N,08348.7678,W,27.3232,141.742,261214,,*0C
$GPGSA,A,3,21,24,14,19,15,22,18,27,04,,,,1.5,0.8,1.1*3A
$GPGSV,3,1,11,24,49,069,47,04,13,319,34,22,68,303,43,11,03,325,21*7B
$GPGSV,3,2,11,19,12,286,40,27,06,259,34,12,08,108,41,14,48,253,46*79
$GPGSV,3,3,11,15,19,067,37,18,69,109,46,21,26,180,42*44
$GPZDA,203439.00,26,12,2014,00,00*69
$GPGGA,203439,4525.0097,N,08348.7615,W,1,09,0.80,184.22,M,-35.934,M,,*7C
$GPRMC,203439,A,4525.0097,N,08348.7615,W,27.3232,141.742,261214,,*08
$GPGSA,A,3,21,24,14,19,15,22,18,27,04,,,,1.5,0.8,1.1*3A
$GPGSV,3,1,11,24,49,069,47,04,13,319,34,22,68,303,43,11,03,325,22*78
$GPGSV,3,2,11,19,12,286,40,27,06,259,32,12,08,108,41,14,48,253,46*7F
$GPGSV,3,3,11,15,19,067,37,18,69,109,46,21,26,180,39*48
$GPZDA,203440.00,26,12,2014,00,00*67
$GPGGA,203440,4525.0036,N,08348.7545,W,1,09,0.80,184.17,M,-35.934,M,,*79
$GPRMC,203440,A,4525.0036,N,08348.7545,W,27.3232,141.742,261214,,*0B
$GPGSA,A,3,21,24,14,19,15,22,18,27,04,,,,1.5,0.8,1.1*3A
$GPGSV,3,1,11,24,49,069,46,04,13,319,33,22,68,303,43,11,03,325,22*7E
$GPGSV,3,2,11,19,12,286,33,27,06,259,20,12,08,108,41,14,48,253,45*7B
$GPGSV,3,3,11,15,19,067,37,18,69,109,46,21,26,180,39*48
$GPZDA,203441.00,26,12,2014,00,00*66
$GPGGA,203441,4524.9975,N,08348.7482,W,1,09,0.80,184.04,M,-35.934,M,,*76
$GPRMC,203441,A,4524.9975,N,08348.7482,W,27.4880,141.371,261214,,*06
$GPGSA,A,3,21,24,14,19,15,22,18,27,04,,,,1.5,0.8,1.1*3A
$GPGSV,3,1,11,24,49,069,46,04,13,319,33,22,68,303,43,11,03,325,21*7D
$GPGSV,3,2,11,19,12,286,34,27,06,259,25,12,08,108,41,14,48,253,45*79
$GPGSV,3,3,11,15,19,067,37,18,69,109,46,21,26,180,40*46
$GPZDA,203442.00,26,12,2014,00,00*65
$GPGGA,203442,4524.9914,N,08348.7411,W,1,09,0.80,183.98,M,-35.934,M,,*7A
$GPRMC,203442,A,4524.9914,N,08348.7411,W,27.2046,141.475,261214,,*0F
$GPGSA,A,3,21,24,14,19,15,22,18,27,04,,,,1.5,0.8,1.1*3A
$GPGSV,3,1,11,24,49,069,46,04,13,319,33,22,68,303,43,11,03,325,21*7D
$GPGSV,3,2,11,19,12,286,35,27,06,259,26,12,08,108,41,14,48,253,45*7B
$GPGSV,3,3,11,15,19,067,37,18,69,109,46,21,26,180,40*46
$GPZDA,203443.00,26,12,2014,00,00*64
$GPGGA,203443,4524.9857,N,08348.7349,W,1,09,0.80,184.56,M,-35.934,M,,*72
$GPRMC,203443,A,4524.9857,N,08348.7349,W,26.4893,141.506,261214,,*00
$GPGSA,A,3,21,24,14,19,15,22,18,27,04,,,,1.5,0.8,1.1*3A
$GPGSV,3,1,11,24,49,069,46,04,13,319,33,22,68,303,43,11,03,325,21*7D
$GPGSV,3,2,11,19,12,286,36,27,06,259,25,12,08,108,42,14,48,253,46*7B
$GPGSV,3,3,11,15,19,067,37,18,69,109,46,21,26,180,40*46
$GPZDA,203444.00,26,12,2014,00,00*63
$GPGGA,203444,4524.9800,N,08348.7285,W,1,09,0.80,183.73,M,-35.934,M,,*76
$GPRMC,203444,A,4524.9800,N,08348.7285,W,26.0726,141.383,261214,,*0A
$GPGSA,A,3,21,24,14,19,15,22,18,27,04,,,,1.5,0.8,1.1*3A
$GPGSV,3,1,11,24,49,067,46,04,13,319,33,22,68,303,43,11,04,325,21*74
$GPGSV,3,2,11,19,12,286,41,27,06,259,25,12,08,108,42,14,48,253,46*7B
$GPGSV,3,3,11,15,19,067,37,18,69,109,46,21,26,180,41*47
$GPZDA,203445.00,26,12,2014,00,00*62
$GPGGA,203445,4524.9743,N,08348.7222,W,1,09,0.80,184.31,M,-35.934,M,,*73
$GPRMC,203445,A,4524.9743,N,08348.7222,W,25.3573,141.413,261214,,*02
$GPGSA,A,3,21,24,14,19,15,22,18,27,04,,,,1.5,0.8,1.1*3A
$GPGSV,3,1,11,24,49,067,46,04,13,319,33,22,68,303,44,11,04,325,21*73
$GPGSV,3,2,11,19,12,286,41,27,06,259,26,12,08,108,42,14,48,253,46*78
$GPGSV,3,3,11,15,19,067,37,18,69,109,47,21,26,180,41*46
$GPZDA,203446.00,26,12,2014,00,00*61
$GPGGA,203446,4524.9690,N,08348.7158,W,1,09,0.80,184.19,M,-35.934,M,,*7B
$GPRMC,203446,A,4524.9690,N,08348.7158,W,24.4925,141.810,261214,,*06
$GPGSA,A,3,21,24,14,19,15,22,18,27,04,,,,1.5,0.8,1.1*3A
$GPGSV,3,1,11,24,49,067,47,04,13,319,33,22,68,303,44,11,04,325,21*72
$GPGSV,3,2,11,19,12,286,40,27,06,259,30,12,08,108,42,14,48,253,46*7E
$GPGSV,3,3,11,15,19,067,37,18,69,109,47,21,26,180,41*46
$GPZDA,203447.00,26,12,2014,00,00*60
$GPGGA,203447,4524.9636,N,08348.7095,W,1,09,0.80,184.08,M,-35.934,M,,*76
$GPRMC,203447,A,4524.9636,N,08348.7095,W,23.3603,141.723,261214,,*0F
$GPGSA,A,3,21,24,14,19,15,22,18,27,04,,,,1.5,0.8,1.1*3A
$GPGSV,3,1,11,24,49,067,47,04,13,319,33,22,68,303,44,11,04,325,21*72
$GPGSV,3,2,11,19,12,286,41,27,06,259,31,12,08,108,42,14,48,253,46*7E
$GPGSV,3,3,11,15,19,067,37,18,69,109,47,21,26,180,41*46
$GPZDA,203448.00,26,12,2014,00,00*6F
$GPGGA,203448,4524.9588,N,08348.7046,W,1,09,0.80,184.52,M,-35.934,M,,*7E
$GPRMC,203448,A,4524.9588,N,08348.7046,W,20.6490,142.154,261214,,*03
$GPGSA,A,3,21,24,14,19,15,22,18,27,04,,,,1.5,0.8,1.1*3A
$GPGSV,3,1,11,24,49,067,46,04,13,319,33,22,68,303,43,11,04,325,21*74
$GPGSV,3,2,11,19,12,286,41,27,06,259,21,12,08,108,42,14,48,253,43*7A
$GPGSV,3,3,11,15,19,067,37,18,69,109,46,21,26,180,41*47
$GPZDA,203449.00,26,12,2014,00,00*6E
$GPGGA,203449,4524.9543,N,08348.6997,W,1,09,0.80,184.27,M,-35.934,M,,*7E
$GPRMC,203449,A,4524.9543,N,08348.6997,W,17.1038,142.396,261214,,*08
$GPGSA,A,3,21,24,14,19,15,22,18,27,04,,,,1.5,0.8,1.1*3A
$GPGSV,3,1,11,24,49,067,47,04,13,319,28,22,68,303,43,11,04,325,18*75
$GPGSV,3,2,11,19,12,286,38,27,06,259,24,12,08,108,42,14,48,253,45*77
$GPGSV,3,3,11,15,19,067,29,18,69,109,46,21,26,180,41*48
$GPZDA,203450.00,26,12,2014,00,00*66
$GPGGA,203450,4524.9511,N,08348.6962,W,1,09,0.80,184.59,M,-35.934,M,,*72
$GPRMC,203450,A,4524.9511,N,08348.6962,W,14.4869,145.881,261214,,*0D
$GPGSA,A,3,21,24,14,19,15,22,18,27,04,,,,1.5,0.8,1.1*3A
